,City Name,Date,Long,Lat,Temp,Humid,Wind,clouds,Country
0,Alamosa,1608350725,-105.87,37.47,15.8,92,3.36,90,US
1,Carutapera,1608350725,-46.02,-1.2,77.67,86,5.53,6,BR
2,Rincon,1608350724,-81.24,32.3,41.0,80,5.82,1,US
3,Qaanaaq,1608350725,-69.36,77.48,-1.91,84,0.96,14,GL
4,Bluff,1608350725,168.33,-46.6,64.99,93,1.99,100,NZ
5,Yellowknife,1608350725,-114.35,62.46,-29.2,66,8.05,90,CA
6,Beringovskiy,1608350725,179.32,63.05,-0.11,93,13.98,96,RU
7,Oxford,1608350444,-1.26,51.75,50.0,87,20.8,100,GB
8,Saldanha,1608350726,17.94,-33.01,59.0,82,3.36,0,ZA
9,Mataura,1608350726,168.86,-46.19,64.99,93,1.99,100,NZ
10,Eilat,1608350726,34.95,29.56,55.4,76,9.17,0,IL
11,Dikson,1608350726,80.55,73.51,-21.14,89,6.35,100,RU
12,Tomatlán,1608350726,-105.25,19.93,66.99,75,2.75,58,MX
13,San Patricio,1608350726,-97.52,28.02,68.0,82,14.99,90,US
14,Casper,1608350726,-106.31,42.87,21.2,79,17.22,1,US
15,Ushuaia,1608350726,-68.3,-54.8,42.8,70,8.05,0,AR
16,Trairi,1608350726,-39.27,-3.28,79.39,76,10.45,24,BR
17,Acapulco de Juárez,1608350557,-99.89,16.86,78.8,74,6.93,40,MX
18,Mokhotlong,1608350726,29.07,-29.29,59.72,67,1.05,0,LS
19,Hermanus,1608350727,19.23,-34.42,64.99,86,5.01,5,ZA
20,The Pas,1608350642,-101.25,53.83,-5.8,70,5.82,90,CA
21,Butaritari,1608350727,172.79,3.07,81.77,81,13.38,100,KI
22,Tigil',1608350727,158.67,57.8,8.28,91,1.21,97,RU
23,Dandong,1608350727,124.39,40.13,20.1,65,3.09,0,CN
24,Vaini,1608350727,-175.2,-21.2,78.8,94,14.99,90,TO
25,Chui,1608350727,-53.46,-33.7,68.61,82,11.86,5,UY
26,Campbell River,1608350664,-125.24,50.02,46.0,100,10.29,90,CA
27,Lumsden,1608350727,-104.87,50.65,3.2,77,18.34,20,CA
28,Mogocha,1608350727,119.77,53.73,-6.07,78,2.01,19,RU
29,New Norfolk,1608350727,147.06,-42.78,59.0,47,1.01,98,AU
30,Taltal,1608350728,-70.48,-25.4,61.45,73,4.52,12,CL
31,Port Alfred,1608350728,26.89,-33.59,70.0,98,3.0,96,ZA
32,Touros,1608350728,-35.46,-5.2,77.0,83,9.17,20,BR
33,Eureka,1608350728,-124.16,40.8,45.0,89,3.0,94,US
34,Esperance,1608350728,121.9,-33.87,77.0,33,9.17,0,AU
35,Rikitea,1608350728,-134.97,-23.12,78.33,76,20.09,0,PF
36,Hithadhoo,1608350452,73.08,-0.6,82.24,69,4.97,42,MV
37,Albany,1608350595,-73.97,42.6,12.0,91,3.36,1,US
38,Bambous Virieux,1608350728,57.76,-20.34,80.01,78,6.93,40,MU
39,Vardø,1608350728,31.11,70.37,22.03,94,6.22,73,NO
40,Bowen,1608350729,148.23,-20.02,93.2,41,13.87,67,AU
41,Saint Paul Harbor,1608350729,-152.41,57.79,24.8,92,8.05,90,US
42,San Cristobal,1608350729,-72.22,7.77,63.81,84,1.66,45,VE
43,Severo-Kuril'sk,1608350729,156.12,50.68,30.67,93,5.3,31,RU
44,Hobart,1608350556,147.33,-42.88,59.0,47,17.22,75,AU
45,Luoyang,1608350729,112.45,34.68,37.69,59,4.23,100,CN
46,La Campana,1608350729,-5.43,37.57,48.99,100,1.23,75,ES
47,Bac Lieu,1608350729,105.72,9.29,83.82,68,7.29,100,VN
48,Barrow,1608350508,-156.79,71.29,-7.6,83,17.22,1,US
49,Ancud,1608350729,-73.82,-41.87,53.01,81,7.72,40,CL
50,Solnechnyy,1608350729,136.63,50.72,-0.58,82,1.95,34,RU
51,Punta Arenas,1608350730,-70.92,-53.15,48.2,76,10.29,100,CL
52,Marsh Harbour,1608350715,-77.06,26.54,68.54,63,16.04,22,BS
53,Katsuura,1608350730,140.3,35.13,48.99,42,5.99,81,JP
54,Souillac,1608350730,57.52,-20.52,78.8,78,6.93,40,MU
55,Busselton,1608350730,115.33,-33.65,79.39,36,10.58,0,AU
56,Qiqihar,1608350730,123.97,47.34,10.53,67,9.06,0,CN
57,Kualakapuas,1608350730,114.39,-3.01,78.8,94,3.36,40,ID
58,Khandyga,1608350665,135.6,62.67,-41.21,80,1.9,100,RU
59,Pangnirtung,1608350730,-65.71,66.15,-5.39,82,3.69,8,CA
60,Clyde River,1608350730,-68.59,70.47,-13.0,75,6.93,1,CA
61,Tambopata,1608350437,-69.18,-12.73,72.25,96,2.46,100,PE
62,Hilo,1608350609,-155.09,19.73,75.2,78,5.82,75,US
63,Atuona,1608350731,-139.03,-9.8,78.73,74,15.77,87,PF
64,Tiksi,1608350731,128.87,71.69,-22.5,87,7.87,100,RU
65,Ribeira Grande,1608350731,-28.7,38.52,60.87,78,8.63,94,PT
66,Rojhan,1608350731,69.95,28.69,61.21,28,5.32,0,PK
67,São João da Barra,1608350731,-41.05,-21.64,73.81,93,3.36,98,BR
68,La Ronge,1608350731,-105.28,55.1,-9.4,76,8.05,100,CA
69,Nikolskoye,1608350731,30.79,59.7,33.8,98,2.24,90,RU
70,Avarua,1608350731,-159.78,-21.21,80.6,83,11.41,100,CK
71,Alyangula,1608350505,136.42,-13.85,80.6,83,12.75,75,AU
72,Bandundu Province,1608350731,17.37,-3.32,69.28,96,1.48,5,CD
73,Carnarvon,1608350732,113.63,-24.87,80.6,69,20.8,0,AU
74,Kaitangata,1608350732,169.85,-46.28,63.37,86,3.58,100,NZ
75,Xai-Xai,1608350732,33.64,-25.05,72.55,91,4.09,90,MZ
76,Dunedin,1608350732,170.5,-45.87,64.0,73,17.0,100,NZ
77,Tuatapere,1608350732,167.68,-46.13,64.99,93,1.99,100,NZ
78,Geraldton,1608350732,114.6,-28.77,87.8,33,19.46,0,AU
79,Jacareacanga,1608350732,-57.75,-6.22,73.63,95,1.19,69,BR
80,Lebu,1608350732,-73.65,-37.62,53.91,89,5.66,100,CL
81,Caraquet,1608350445,-64.94,47.79,14.0,85,2.24,87,CA
82,Gimli,1608350732,-96.99,50.63,5.0,71,4.7,0,CA
83,Bredasdorp,1608350713,20.04,-34.53,59.0,93,3.36,68,ZA
84,Moose Factory,1608350733,-80.61,51.26,30.2,74,18.34,90,CA
85,Hohhot,1608350733,111.65,40.81,12.2,66,4.47,0,CN
86,Puerto Carreño,1608350733,-67.49,6.19,75.83,84,7.43,76,CO
87,Jamestown,1608350733,-79.24,42.1,19.0,92,3.36,1,US
88,Polovinnoye,1608350733,65.99,54.79,9.82,95,14.14,100,RU
89,Iqaluit,1608350733,-68.51,63.75,-9.0,69,2.24,5,CA
90,Kahului,1608350685,-156.47,20.89,73.4,78,14.99,40,US
91,Fortuna,1608350514,-124.16,40.6,46.0,87,6.93,1,US
92,Pinawa,1608350733,-95.88,50.15,-0.15,93,4.25,13,CA
93,Aquiraz,1608350734,-38.39,-3.9,80.6,78,10.29,75,BR
94,Peski,1608350734,38.76,55.22,28.4,92,8.95,90,RU
95,Kasongo-Lunda,1608350734,16.82,-6.47,67.59,93,0.18,67,CD
96,Il’inskiy,1608350734,38.12,55.62,28.4,92,8.95,90,RU
97,Bariloche,1608350734,-71.31,-41.15,50.0,61,17.22,20,AR
98,Alofi,1608350734,-169.92,-19.06,84.2,70,10.29,75,NU
99,Leningradskiy,1608350734,178.42,69.38,12.09,94,23.04,100,RU
100,Broome,1608350734,-75.83,42.25,12.2,85,4.7,1,US
101,Mahébourg,1608350734,57.7,-20.41,78.8,78,6.93,40,MU
102,Roebourne,1608350734,117.13,-20.78,103.69,22,4.32,7,AU
103,Narsaq,1608350734,-46.05,60.92,26.6,73,10.29,100,GL
104,Evensk,1608350735,159.23,61.95,3.87,85,12.57,100,RU
105,Hasaki,1608350735,140.83,35.73,48.0,42,6.93,75,JP
106,Bethel,1608350441,-73.41,41.37,19.0,66,5.55,1,US
107,Banff,1608350735,-115.57,51.18,42.8,51,16.11,100,CA
108,Pevek,1608350735,170.31,69.7,6.89,93,9.71,72,RU
109,Safranbolu,1608350735,32.69,41.25,41.72,84,0.22,100,TR
110,Songjianghe,1608350735,127.48,42.19,8.89,66,8.75,0,CN
111,Codrington,1608350735,141.97,-38.27,57.99,61,9.46,100,AU
112,Kavaratti,1608350735,72.64,10.57,84.2,79,4.7,40,IN
113,Khani,1608350735,42.96,41.96,35.6,74,3.36,0,GE
114,Port Hardy,1608350735,-127.42,50.7,46.4,87,12.75,40,CA
115,Tabas,1608350736,56.92,33.6,46.4,75,2.24,52,IR
116,Manggar,1608350736,108.27,-2.88,83.68,72,11.14,100,ID
117,Quatre Cocos,1608350736,57.76,-20.21,80.01,78,6.93,40,MU
118,Berbera,1608350736,45.01,10.44,77.86,78,2.44,75,SO
119,Mar del Plata,1608350736,-57.56,-38.0,68.0,94,9.17,0,AR
120,Faanui,1608350736,-151.75,-16.48,80.06,72,6.26,83,PF
121,Haines Junction,1608350736,-137.51,60.75,-2.2,77,2.24,100,CA
122,Tilichiki,1608350736,166.1,60.47,-6.57,92,13.18,95,RU
123,Skegness,1608350736,0.34,53.14,52.0,87,17.22,90,GB
124,Matagami,1608350736,-77.63,49.75,8.6,78,10.29,1,CA
125,East London,1608350736,27.91,-33.02,69.8,100,5.82,90,ZA
126,Moerai,1608350737,-151.33,-22.43,77.41,76,10.94,100,PF
127,Puerto Escondido,1608350737,-97.07,15.85,78.8,69,3.38,40,MX
128,Itoman,1608350737,127.67,26.12,68.0,77,23.04,75,JP
129,Sur,1608350737,59.53,22.57,69.94,57,1.34,37,OM
130,Doha,1608350737,51.53,25.29,64.4,77,1.12,75,QA
131,Praxédis Guerrero,1608350737,-106.02,31.37,55.4,22,12.75,5,MX
132,Brae,1608350737,-1.35,60.4,50.0,93,12.75,100,GB
133,Cape Town,1608350737,18.42,-33.93,64.99,88,12.75,0,ZA
134,Harper,1608350737,-7.72,4.38,77.94,83,6.42,100,LR
135,Derzhavīnsk,1608350738,66.32,51.1,15.24,94,12.73,100,KZ
136,Hong Kong,1608350650,114.16,22.29,62.01,62,1.99,63,HK
137,Tuktoyaktuk,1608350738,-133.04,69.45,-23.8,74,9.17,75,CA
138,Garissa,1608350738,39.64,-0.45,75.74,80,6.91,3,KE
139,Kimbe,1608350738,150.14,-5.55,84.74,77,4.83,77,PG
140,Kaeo,1608350738,173.78,-35.1,70.93,56,6.02,1,NZ
141,Tugdan,1608350738,122.09,12.31,79.39,87,16.42,100,PH
142,Krasnoarmeysk,1608350738,45.7,51.02,13.42,97,6.17,47,RU
143,Chandauli,1608350738,83.27,25.27,53.6,71,4.7,0,IN
144,Scottsboro,1608350738,-86.03,34.67,36.0,100,2.42,1,US
145,Iquique,1608350738,-70.14,-20.22,69.8,64,10.29,90,CL
146,Sechura,1608350533,-80.82,-5.56,70.32,76,10.8,93,PE
147,Eydhafushi,1608350739,73.07,5.1,83.53,76,18.59,56,MV
148,Wadi Maliz,1608350739,8.55,36.47,53.6,93,2.55,75,TN
149,Rumphi,1608350739,33.86,-11.02,65.46,85,3.29,51,MW
150,Talnakh,1608350739,88.4,69.49,-11.2,83,8.95,40,RU
151,George Town,1608350469,100.34,5.41,82.4,69,4.7,20,MY
152,Port Macquarie,1608350739,152.92,-31.43,72.0,100,9.17,90,AU
153,Coyhaique,1608350739,-72.07,-45.58,46.4,81,4.7,0,CL
154,Portland,1608350094,-122.68,45.52,48.2,87,17.22,90,US
155,Kapaa,1608350739,-159.32,22.08,78.8,74,16.11,75,US
156,Thompson,1608350643,-97.86,55.74,-20.2,68,5.82,5,CA
157,Cookeville,1608350617,-85.5,36.16,33.8,92,4.45,1,US
158,Puerto Ayora,1608350740,-90.35,-0.74,71.01,94,5.08,16,EC
159,Port-Gentil,1608350740,8.78,-0.72,79.23,83,11.32,100,GA
160,Samoylovka,1608350740,43.71,51.18,15.57,96,5.32,96,RU
161,Vigrestad,1608350740,5.7,58.57,50.0,93,18.34,75,NO
162,Dinguiraye,1608350740,-10.72,11.3,68.5,33,2.42,47,GN
163,Yumen,1608350740,97.2,40.28,19.17,83,6.2,12,CN
164,Katiola,1608350740,-5.1,8.13,71.6,88,4.7,40,CI
165,Nybro,1608350740,15.91,56.74,44.6,93,12.75,96,SE
166,Izberbash,1608350741,47.86,42.57,37.4,86,2.24,90,RU
167,Belyy Yar,1608350741,91.39,53.6,26.6,58,11.18,0,RU
168,Orda,1608350741,56.91,57.2,-6.36,89,8.59,1,RU
169,Pandan,1608350741,124.17,14.05,78.69,91,22.93,100,PH
170,Viedma,1608350741,-63.0,-40.81,66.99,73,4.0,100,AR
171,Sakakah,1608350741,40.21,29.97,48.2,81,3.36,0,SA
172,Khatanga,1608350741,102.5,71.97,-18.9,86,6.87,92,RU
173,Bara,1608350741,10.73,10.37,64.15,35,4.63,8,NG
174,Mimongo,1608350741,11.61,-1.62,69.1,95,0.78,99,GA
175,San Miguel de Tucumán,1608350464,-65.22,-26.82,78.8,78,5.82,0,AR
176,Srednekolymsk,1608350742,153.68,67.45,-24.29,87,1.01,67,RU
177,São Filipe,1608350742,-24.5,14.9,72.07,76,12.71,74,CV
178,Sibu,1608350742,111.82,2.3,78.8,88,2.24,40,MY
179,Te Anau,1608350742,167.72,-45.42,58.96,91,3.96,100,NZ
180,Tambun,1608350742,107.07,-6.26,89.6,55,14.99,40,ID
181,Saint Anthony,1608350742,-93.22,45.02,36.0,80,8.41,90,US
182,Chimoré,1608350742,-65.13,-16.98,77.5,75,1.72,68,BO
183,Bandarbeyla,1608350742,50.81,9.49,76.5,82,17.78,42,SO
184,Nishihara,1608350742,127.76,26.18,68.0,77,12.75,90,JP
185,Pestovo,1608350742,35.8,58.59,22.15,97,9.48,100,RU
186,Atar,1608350742,-13.05,20.52,58.46,36,11.12,0,MR
187,Carbonear,1608350742,-53.21,47.73,35.01,94,16.11,90,CA
188,Saint-Philippe,1608350742,55.77,-21.36,82.4,65,1.12,0,RE
189,Lavrentiya,1608350743,-171.0,65.58,6.39,90,18.14,99,RU
190,Nouadhibou,1608350743,-17.03,20.93,60.8,77,18.34,0,MR
191,Grafton,1608350644,-71.69,42.21,17.6,61,5.82,1,US
192,Houma,1608350743,-90.72,29.6,48.99,87,3.36,1,US
193,Whitehorse,1608350743,-135.05,60.72,-4.0,76,3.36,90,CA
194,Eyl,1608350743,49.82,7.98,78.28,75,17.98,40,SO
195,Río Cuarto,1608350743,-64.35,-33.13,57.0,84,8.01,64,AR
196,Ludvika,1608350743,15.19,60.15,44.6,93,4.7,100,SE
197,Christchurch,1608350628,172.63,-43.53,82.4,23,10.29,45,NZ
198,Minas,1608350743,-55.24,-34.38,73.0,88,14.99,0,UY
199,Mandan,1608350743,-100.89,46.83,12.2,78,5.82,1,US
200,Takaka,1608350744,172.8,-40.85,73.0,61,4.0,71,NZ
201,Abhā,1608350703,42.51,18.22,51.8,76,8.05,0,SA
202,Ugoofaaru,1608350744,73.0,5.67,83.16,77,14.5,97,MV
203,Quirinópolis,1608350744,-50.45,-18.45,76.48,62,0.92,88,BR
204,Champotón,1608350641,-90.72,19.35,72.34,87,9.08,10,MX
205,Caravelas,1608350744,-39.25,-17.71,74.86,92,5.06,37,BR
206,Sheltozero,1608350744,35.37,61.37,22.84,95,13.47,100,RU
207,Alta Floresta,1608350744,-56.09,-9.88,70.3,95,2.39,54,BR
208,Tierralta,1608350744,-76.06,8.17,74.95,90,4.18,65,CO
209,Arrondissement de Saint-Denis,1608350493,2.33,48.92,46.0,93,5.82,0,FR
210,Ostrovnoy,1608350745,39.51,68.05,22.78,93,29.15,100,RU
211,Kavieng,1608350745,150.8,-2.57,84.74,74,9.55,85,PG
212,Deputatsky,1608350745,139.9,69.3,-23.06,88,3.56,100,RU
213,Calbuco,1608350745,-73.13,-41.77,51.8,87,5.82,90,CL
214,Arraial do Cabo,1608350745,-42.03,-22.97,74.52,90,11.14,70,BR
215,Kampene,1608350745,26.67,-3.6,66.4,93,1.45,100,CD
216,Kumul,1608350745,93.45,42.8,24.75,71,2.46,34,CN
217,Bengkulu,1608350745,102.27,-3.8,84.07,63,4.99,100,ID
218,Castro,1608350745,-50.01,-24.79,63.39,94,2.68,0,BR
219,Ixtapa,1608350745,-105.2,20.7,70.0,94,2.24,5,MX
220,Griffith,1608350746,-87.42,41.53,33.8,90,13.87,1,US
221,Nanortalik,1608350746,-45.24,60.14,24.04,93,8.41,100,GL
222,Saskylakh,1608350746,114.08,71.92,-28.21,83,9.08,94,RU
223,Faxinal,1608350746,-51.32,-24.0,66.72,88,2.98,0,BR
224,Billings Metropolitan Area,1608350300,-108.5,45.78,33.8,55,13.87,1,US
225,Lashio,1608350746,97.75,22.93,72.27,60,1.74,24,MM
226,Kīhei,1608350746,-156.47,20.79,73.4,78,14.99,40,US
227,Cidreira,1608350746,-50.21,-30.18,72.61,85,20.67,12,BR
228,Olafsvik,1608350746,-23.71,64.89,33.08,91,41.0,100,IS
229,Tasiilaq,1608350747,-37.64,65.61,19.4,67,2.24,100,GL
230,Longyearbyen,1608350486,15.64,78.22,6.8,60,11.41,20,SJ
231,Westport,1608350485,-73.36,41.14,23.0,57,9.17,1,US
232,Bah,1608350747,78.6,26.87,58.08,33,6.29,6,IN
233,Pauini,1608350747,-66.98,-7.71,72.27,93,2.35,57,BR
234,Santa Comba,1608350747,-8.81,43.03,57.0,81,5.01,36,ES
235,College,1608350747,-147.8,64.86,-11.99,68,3.36,40,US
236,Río Gallegos,1608350747,-69.22,-51.62,50.0,76,8.05,40,AR
237,Visby,1608350747,18.3,57.64,44.6,93,13.87,100,SE
238,Imbituba,1608350747,-48.67,-28.24,75.2,83,4.7,75,BR
239,Conceição do Araguaia,1608350747,-49.26,-8.26,76.86,76,3.06,85,BR
240,Faya,1608350747,42.45,18.39,51.8,76,8.05,0,SA
241,Cabo San Lucas,1608350459,-109.91,22.89,68.0,77,3.36,40,MX
242,San Vicente,1608350748,-54.13,-26.62,70.21,92,4.14,1,AR
243,Bagotville,1608350748,153.42,-28.98,86.0,74,12.75,75,AU
244,Zhigansk,1608350748,123.37,66.77,-41.51,80,9.19,94,RU
245,Sexsmith,1608350748,-118.79,55.35,8.6,78,2.24,90,CA
246,Zakharivka,1608350748,29.75,47.33,36.66,82,5.03,84,UA
247,Bukama,1608350748,25.85,-9.2,67.44,95,0.98,100,CD
248,Gorlice,1608350748,21.16,49.66,36.0,96,4.0,46,PL
249,Luanda,1608350747,13.23,-8.84,75.2,88,8.28,75,AO
250,Boden,1608350748,21.69,65.83,23.0,100,4.7,27,SE
251,Uni,1608350749,51.49,57.75,-3.53,91,7.61,0,RU
252,Port Elizabeth,1608350749,25.57,-33.92,68.0,100,8.05,90,ZA
253,Lompoc,1608350749,-120.46,34.64,48.0,87,4.7,1,US
254,Manyana,1608350749,21.72,-23.4,67.33,81,10.54,95,BW
255,Emerald,1608350749,148.17,-23.53,93.0,52,5.82,40,AU
256,Kropotkin,1608350749,40.58,45.44,33.87,90,6.53,99,RU
257,Airai,1608350749,125.41,-8.93,71.15,86,5.26,86,TL
258,Acaraú,1608350749,-40.12,-2.89,80.6,74,1.12,20,BR
259,Coahuayana Viejo,1608350749,-103.68,18.73,71.35,69,3.15,61,MX
260,Pāsighāt,1608350749,95.33,28.07,69.19,38,2.24,3,IN
261,Yenagoa,1608350750,6.26,4.92,74.46,94,3.18,65,NG
262,Kenai,1608350750,-151.26,60.55,21.99,78,5.82,90,US
263,Port Hedland,1608350750,118.57,-20.32,93.2,67,10.29,60,AU
264,Shamary,1608350750,58.22,57.34,-4.11,88,3.6,0,RU
265,Maniitsoq,1608350750,-52.9,65.42,18.48,88,6.29,100,GL
266,Huilong,1608350750,121.66,31.81,43.83,62,17.65,36,CN
267,Aklavik,1608350750,-135.01,68.22,-27.4,67,1.12,100,CA
268,Torbay,1608350750,-52.73,47.67,33.01,97,16.11,90,CA
269,Dudinka,1608350751,86.18,69.41,-11.2,83,8.95,40,RU
270,Fairbanks,1608350751,-147.72,64.84,-11.99,68,3.36,40,US
271,Guerrero Negro,1608350751,-114.06,27.98,56.48,84,5.82,55,MX
272,Ponta do Sol,1608350751,-17.1,32.67,61.0,77,4.7,20,PT
273,Sangar,1608350751,127.47,63.92,-40.76,79,4.63,86,RU
274,Launceston,1608350751,147.17,-41.45,69.01,42,8.05,75,AU
275,Mae Sai,1608350751,99.88,20.43,80.01,65,4.7,75,TH
276,Nuuk,1608350718,-51.72,64.18,23.0,73,9.17,100,GL
277,Buta,1608350583,24.73,2.79,66.78,94,1.23,5,CD
278,Port Blair,1608350589,92.75,11.67,83.07,75,16.04,98,IN
279,Nome,1608350643,-165.41,64.5,1.4,59,6.93,90,US
280,Blythe,1608350752,-114.6,33.61,57.2,24,9.17,1,US
281,Chernyshevskiy,1608350752,112.47,63.01,-1.44,94,4.29,100,RU
282,Margate,1608350633,1.39,51.38,51.01,75,5.99,100,GB
283,Sørland,1608350752,12.69,67.67,40.48,71,13.13,100,NO
284,Kiryat Gat,1608350752,34.76,31.61,54.0,93,2.66,0,IL
285,Khāsh,1608350752,61.22,28.22,50.7,45,0.92,100,IR
286,Japura,1608350752,102.35,-0.32,85.95,62,5.68,100,ID
287,Batagay,1608350752,134.63,67.63,-33.74,81,2.48,97,RU
288,Pisco,1608350752,-76.22,-13.7,68.0,82,12.75,0,PE
289,Tura,1608350752,90.22,25.52,67.46,44,1.19,0,IN
290,Muros,1608350753,-9.06,42.78,57.0,85,7.0,34,ES
291,Ketchikan,1608350463,-131.65,55.34,42.8,75,6.93,75,US
292,Dembī Dolo,1608350753,34.8,8.53,58.96,56,5.17,1,ET
293,Honiara,1608350753,159.95,-9.43,78.8,100,6.93,90,SB
294,Yangambi,1608350753,24.43,0.81,67.48,96,1.63,8,CD
295,Cayenne,1608350753,-52.33,4.93,75.2,100,3.36,97,GF
296,Olinda,1608350753,-34.86,-8.01,77.0,73,9.17,75,BR
297,Lucea,1608350753,-78.17,18.45,80.6,78,6.93,20,JM
298,Kruisfontein,1608350753,24.73,-34.0,68.0,89,1.99,10,ZA
299,Korla,1608350753,86.15,41.76,23.43,87,4.88,63,CN
300,Praia da Vitória,1608350753,-27.07,38.73,60.8,72,6.6,20,PT
301,Mayumba,1608350754,10.66,-3.43,76.75,89,5.3,99,GA
302,Ucluelet,1608350459,-125.55,48.93,46.99,92,11.01,70,CA
303,Kondopoga,1608350754,34.26,62.21,24.8,85,2.24,96,RU
304,Salina Cruz,1608350754,-95.2,16.17,76.48,67,17.85,14,MX
305,Madang,1608350754,145.8,-5.22,82.69,80,4.36,99,PG
306,Zelenets,1608350754,50.75,61.88,-14.8,83,4.47,20,RU
307,Palāsa,1608350754,84.42,18.77,76.33,64,5.7,0,IN
308,Cap Malheureux,1608350754,57.61,-19.98,80.01,75,8.99,2,MU
309,Chokurdakh,1608350754,147.92,70.63,-18.42,88,6.44,32,RU
310,Vanimo,1608350755,141.3,-2.67,85.86,68,4.14,73,PG
311,Hecun,1608350755,114.11,36.53,37.85,57,6.44,40,CN
312,Inhapim,1608350755,-42.12,-19.55,69.42,94,3.47,100,BR
313,Chifeng,1608350755,118.96,42.27,14.02,87,7.43,0,CN
314,Collie,1608350755,116.15,-33.37,94.23,16,3.36,0,AU
315,Kem',1608350755,34.58,64.96,20.62,97,11.83,100,RU
316,Gayny,1608350755,54.32,60.31,-3.15,92,3.6,0,RU
317,Fort Frances,1608350644,-93.4,48.6,10.99,85,5.82,40,CA
318,Mossamedes,1608350755,12.15,-15.2,66.27,78,4.94,75,AO
319,Puqi,1608350755,113.88,29.72,45.3,57,7.99,1,CN
320,Kloulklubed,1608350755,134.26,7.04,80.6,88,12.75,90,PW
321,Saint-Pierre,1608350756,55.48,-21.34,82.4,65,1.12,0,RE
322,Pontianak,1608350643,109.33,-0.03,86.38,64,5.23,99,ID
323,Muzhi,1608350756,64.67,65.37,7.09,89,9.89,58,RU
324,Shihezi,1608350756,86.03,44.3,6.42,91,0.94,32,CN
325,Madera,1608350756,-119.83,37.17,44.01,92,2.28,0,US
326,Smithers,1608350756,-127.17,54.78,32.0,94,2.24,90,CA
327,Mackay,1608350499,149.2,-21.15,89.01,66,18.34,28,AU
328,Broken Hill,1608350756,141.43,-31.95,78.8,13,8.05,7,AU
329,Nicoya,1608350756,-85.45,10.15,75.2,78,5.82,0,CR
330,Tiznit Province,1608350757,-9.5,29.58,51.85,72,0.76,0,MA
331,Newport,1608350511,-3.0,51.59,52.0,99,1.01,100,GB
332,Plettenberg Bay,1608350757,23.37,-34.05,65.71,83,1.74,0,ZA
333,Ust'-Karsk,1608350757,118.81,52.7,-3.89,80,3.02,3,RU
334,Zhaozhou,1608350757,125.32,45.68,6.66,86,8.57,0,CN
335,Norman Wells,1608350757,-126.83,65.28,-47.2,63,2.24,40,CA
336,Kerchevskiy,1608350757,56.29,59.95,-7.87,91,3.62,22,RU
337,Serenje,1608350757,30.24,-13.23,62.83,92,1.39,100,ZM
338,Wilmington,1608350653,-77.94,34.23,36.0,80,4.81,1,US
339,Cherskiy,1608350758,161.3,68.75,-25.31,86,3.09,0,RU
340,Bathsheba,1608350758,-59.52,13.22,77.0,88,12.75,75,BB
341,Goderich,1608350758,-81.72,43.75,28.4,79,10.29,99,CA
342,Sept-Îles,1608350529,-66.38,50.2,19.4,73,4.7,0,CA
343,Victor Harbor,1608350758,138.62,-35.57,72.0,41,4.0,20,AU
344,Lorengau,1608350758,147.27,-2.02,85.33,73,7.96,91,PG
345,North Bend,1608350758,-124.22,43.41,53.01,93,16.11,90,US
346,Ahipara,1608350758,173.17,-35.17,71.4,58,3.71,15,NZ
347,Nurota,1608350758,65.69,40.56,35.6,93,2.24,90,UZ
348,Maraã,1608350758,-65.37,-1.83,73.4,99,2.8,100,BR
349,Yar-Sale,1608350759,70.83,66.83,-17.82,86,7.58,59,RU
350,Ormond Beach,1608350625,-81.06,29.29,48.2,93,8.05,1,US
351,Rawson,1608350759,-65.1,-43.3,61.14,59,8.77,54,AR
352,Cumana,1608350759,-64.18,10.46,77.27,78,9.1,17,VE
353,Kassala,1608350759,36.4,15.45,64.29,91,7.92,1,SD
354,Changchun,1608350626,125.32,43.88,6.8,50,8.95,0,CN
355,Turbat,1608350759,63.04,26.0,66.81,31,2.35,98,PK
356,High Level,1608350760,-117.14,58.52,-14.8,75,5.82,90,CA
357,Grindavik,1608350760,-22.43,63.84,35.6,80,20.8,0,IS
358,Nampula,1608350760,39.27,-15.12,73.4,88,8.05,75,MZ
359,Campos Altos,1608350686,-46.17,-19.7,65.21,89,1.74,100,BR
360,Tautira,1608350760,-149.15,-17.73,82.4,74,11.41,75,PF
361,Lakatoro,1608350760,167.42,-16.1,77.0,94,9.4,90,VU
362,Bonavista,1608350760,-53.11,48.65,30.2,100,4.7,93,CA
363,Río Blanco,1608350493,-97.15,18.83,58.87,75,0.54,7,MX
364,Mitsamiouli,1608350760,43.28,-11.38,82.56,66,3.2,97,KM
365,Berlevåg,1608350760,29.09,70.86,23.23,95,10.31,77,NO
366,Aktobe,1608350640,57.21,50.28,23.0,92,8.95,90,KZ
367,Virginia Beach,1608350505,-75.98,36.85,42.8,52,12.75,90,US
368,Bermeo,1608350761,-2.72,43.42,55.99,62,12.75,0,ES
369,Los Llanos de Aridane,1608350761,-17.92,28.66,64.4,68,5.82,90,ES
370,Moindou,1608350761,165.68,-21.69,86.0,51,18.34,40,NC
371,Padang,1608350761,100.35,-0.95,84.31,63,3.96,96,ID
372,Seoul,1608350699,126.98,37.57,28.4,23,6.58,1,KR
373,Ilulissat,1608350761,-51.1,69.22,17.6,72,5.82,100,GL
374,Pointe Michel,1608350762,-61.38,15.25,78.24,78,11.07,17,DM
375,Tessalit,1608350762,1.01,20.2,61.39,29,5.66,0,ML
376,Yarim,1608350762,44.38,14.3,48.78,75,1.36,62,YE
377,Yulara,1608350762,130.99,-25.24,98.6,22,12.75,1,AU
378,Onda,1608350763,-0.25,39.97,46.99,88,3.65,50,ES
379,Okhotsk,1608350763,143.3,59.38,-18.53,82,18.34,5,RU
380,Mabaruma,1608350763,-59.78,8.2,73.98,97,2.17,96,GY
381,Ţahţā,1608350763,31.5,26.77,50.0,76,4.7,0,EG
382,Aleysk,1608350764,82.78,52.49,20.12,89,22.3,100,RU
383,Vestmannaeyjar,1608350765,-20.27,63.44,40.6,73,5.39,100,IS
384,Kinshasa,1608350543,15.32,-4.32,71.6,100,2.24,40,CD
385,Constitución,1608350765,-72.42,-35.33,52.59,90,4.12,15,CL
386,Armidale,1608350741,151.65,-30.52,73.0,75,7.0,55,AU
387,Kudahuvadhoo,1608350765,72.89,2.67,83.05,74,10.36,40,MV
388,Jirlău,1608350765,27.17,45.17,33.91,89,0.49,0,RO
389,Semnan,1608350765,53.4,35.57,41.99,66,1.34,100,IR
390,Kwang Binh,1608350765,106.6,17.48,58.08,80,15.97,100,VN
391,Blagoyevo,1608350766,47.92,63.37,3.94,93,5.59,4,RU
392,Strezhevoy,1608350766,77.59,60.73,-14.8,83,6.71,0,RU
393,Coffs Harbour,1608350530,153.13,-30.3,78.8,78,13.87,90,AU
394,Provideniya,1608350766,-173.3,64.38,4.53,90,17.27,98,RU
395,Jiuquan,1608350766,98.52,39.74,21.88,77,1.07,2,CN
396,Nanhai,1608350766,111.78,30.13,45.0,47,10.51,38,CN
397,Hailar,1608350766,119.7,49.2,1.02,88,9.62,9,CN
398,Asău,1608350767,26.4,46.43,37.99,93,2.24,90,RO
399,Upernavik,1608350767,-56.15,72.79,6.6,94,13.2,100,GL
400,Sitka,1608350648,-135.33,57.05,42.8,75,13.87,90,US
401,Belmonte,1608350767,-38.88,-15.86,77.0,83,4.7,40,BR
402,Mwinilunga,1608350767,24.43,-11.74,62.62,97,6.08,100,ZM
403,Fort Nelson,1608350767,-122.7,58.81,-13.0,69,2.24,90,CA
404,Bay Roberts,1608350768,-53.26,47.6,35.01,94,16.11,90,CA
405,Fare,1608350768,-151.02,-16.7,80.49,73,9.31,99,PF
406,Usogorsk,1608350768,48.69,63.41,4.46,93,5.91,7,RU
407,Lalín,1608350768,-8.12,42.72,54.0,93,5.82,40,ES
408,Aljezur,1608350768,-8.8,37.32,55.99,100,5.01,100,PT
409,Salalah,1608350768,54.09,17.02,71.6,78,4.7,20,OM
410,São Gabriel da Cachoeira,1608350768,-67.09,-0.13,73.18,97,1.28,90,BR
411,Muhafazat Lahij,1608350768,44.58,13.17,71.71,81,5.3,89,YE
412,Lalibela,1608350768,39.03,12.03,48.29,52,1.79,2,ET
413,Bataiporã,1608350768,-53.27,-22.3,75.4,82,5.7,0,BR
414,Say,1608350768,2.37,13.1,71.6,30,1.12,0,NE
415,Thinadhoo,1608350768,72.93,0.53,82.51,67,2.15,89,MV
416,Maragheh,1608350769,46.24,37.39,28.4,79,6.93,0,IR
417,Tanhaçu,1608350769,-41.25,-14.02,70.0,87,2.93,78,BR
418,Shubarshi,1608350769,57.19,48.59,15.84,97,9.44,85,KZ
419,Inuvik,1608350769,-133.72,68.35,-27.4,67,1.12,100,CA
420,Bereda,1608350769,-7.54,43.27,50.0,100,5.99,92,ES
421,Ust'-Kulom,1608350769,53.69,61.69,-0.54,92,4.85,0,RU
422,Vostok,1608350769,135.88,46.49,-9.65,88,8.95,100,RU
423,Rockland,1608350769,-74.05,41.17,19.0,84,4.41,0,US
424,Hamadan,1608350769,48.51,34.8,30.31,96,5.95,100,IR
425,Jaqué,1608350769,-78.17,7.52,78.01,84,7.87,54,PA
426,Opuwo,1608350769,13.84,-18.06,65.26,46,3.6,19,NA
427,Merauke,1608350770,140.33,-8.47,88.57,63,4.47,100,ID
428,Palauig,1608350770,119.9,15.44,77.94,79,2.42,100,PH
429,Luebo,1608350770,21.42,-5.35,68.09,97,1.95,74,CD
430,San Quintín,1608350770,-115.95,30.48,57.61,68,2.24,0,MX
431,Komotini,1608350770,25.4,41.12,39.99,85,1.01,85,GR
432,Yurga,1608350770,84.89,55.72,17.49,96,19.13,100,RU
433,Port Moresby,1608350770,147.18,-9.44,91.4,59,17.22,40,PG
434,Emmen,1608350758,6.91,52.78,41.0,93,3.36,62,NL
435,Hofn,1608350770,-15.21,64.25,41.25,75,9.91,100,IS
436,Novikovo,1608350770,37.89,51.15,29.97,99,4.65,100,RU
437,Goundam,1608350771,-3.67,16.41,69.04,24,9.48,23,ML
438,Sobolevo,1608350771,31.9,54.43,34.11,98,7.38,100,RU
439,Lázaro Cárdenas,1608350771,-102.2,17.96,74.43,64,4.72,57,MX
440,Muriaé,1608350771,-42.37,-21.13,72.5,89,2.48,100,BR
441,Fountain,1608350631,-104.7,38.68,30.2,68,6.93,1,US
442,Victoria Point,1608350771,153.3,-27.58,84.99,65,4.0,25,AU
443,Totness,1608350771,-56.32,5.88,77.11,89,10.02,96,SR
444,Havelock,1608350671,-76.9,34.88,36.0,80,5.75,1,US
445,Kemijärvi,1608350771,27.43,66.71,18.79,97,4.9,86,FI
446,Laramie,1608350771,-105.59,41.31,23.0,78,9.17,20,US
447,Malakal,1608350771,31.66,9.53,69.22,29,6.96,43,SS
448,Camaná,1608350772,-72.71,-16.62,67.08,80,7.2,56,PE
449,Walvis Bay,1608350772,14.51,-22.96,63.0,87,1.12,24,NA
450,Namatanai,1608350772,152.43,-3.67,84.72,71,8.05,12,PG
451,Ponta Delgada,1608350526,-25.67,37.73,60.8,82,12.75,75,PT
452,Chipinge,1608350772,32.62,-20.19,65.19,100,6.11,100,ZW
453,Beloha,1608350772,45.05,-25.17,77.83,78,6.64,93,MG
454,Valleyview,1608350773,-117.29,55.07,26.6,92,17.22,100,CA
455,Champerico,1608350773,-91.92,14.3,66.99,94,3.96,4,GT
456,Katherine,1608350773,132.27,-14.47,89.6,62,14.99,75,AU
457,Bom Jesus do Galho,1608350773,-42.32,-19.83,69.08,95,3.06,100,BR
458,Aasiaat,1608350773,-52.87,68.71,13.5,95,5.03,99,GL
459,Isangel,1608350773,169.27,-19.55,82.4,65,5.82,75,VU
460,Nieuw Amsterdam,1608350774,-55.08,5.88,75.99,92,8.57,99,SR
461,Batagay-Alyta,1608350774,130.41,67.8,-27.4,84,0.65,98,RU
462,Nan,1608350774,100.67,18.83,75.2,69,2.24,0,TH
463,Hervey Bay,1608350774,152.85,-25.3,88.0,55,11.41,40,AU
464,Atambua,1608350774,124.89,-9.11,79.63,81,9.51,94,ID
465,Palmeira das Missões,1608350774,-53.31,-27.9,70.27,85,8.01,0,BR
466,Dhidhdhoo,1608350774,73.1,6.88,82.9,73,9.48,100,MV
467,Chara,1608350774,118.26,56.91,-7.4,81,1.16,71,RU
468,Alice Springs,1608350600,133.88,-23.7,98.6,20,11.41,8,AU
469,Ranchpar,1608350775,44.37,40.03,24.8,92,1.21,1,AM
470,Kurikka,1608350775,22.42,62.62,35.01,100,3.36,90,FI
471,Havre-St-Pierre,1608350775,-63.6,50.23,14.0,72,5.82,1,CA
472,San Juan,1608350775,-68.54,-31.54,68.9,48,16.62,2,AR
473,Berezovyy,1608350775,135.7,51.67,-1.79,79,2.62,0,RU
474,Hualmay,1608350775,-77.61,-11.1,67.39,84,7.14,100,PE
475,Yeppoon,1608350775,150.73,-23.13,91.4,46,8.05,75,AU
476,Boa Vista,1608350758,-60.67,2.82,78.8,74,9.17,0,BR
477,Marang,1608350775,103.21,5.21,73.4,100,5.82,40,MY
478,Mīnāb,1608350775,57.08,27.15,57.2,82,4.7,44,IR
479,Gobabis,1608350776,18.97,-22.45,68.0,72,1.12,100,NA
480,Buala,1608350776,159.59,-8.14,82.0,78,6.89,100,SB
481,Homer,1608350776,-151.55,59.64,28.4,74,4.7,90,US
482,Barra Patuca,1608350776,-84.28,15.8,77.65,80,11.41,24,HN
483,Åmot,1608350776,7.99,59.57,37.99,88,4.72,100,NO
484,Pangkalanbuun,1608350776,111.62,-2.68,85.51,71,7.34,100,ID
485,Crixás,1608350776,-49.97,-14.55,75.25,63,4.12,84,BR
486,Klaksvík,1608350641,-6.59,62.23,44.6,93,18.34,5,FO
487,Bereket,1608350776,55.52,39.24,38.89,79,2.64,73,TM
488,Mount Isa,1608350776,139.5,-20.73,100.4,25,6.93,40,AU
489,Lingao,1608350777,109.69,19.91,60.48,62,12.46,97,CN
490,Calvinia,1608350777,19.78,-31.47,65.93,53,4.38,0,ZA
491,Pizarro,1608350777,-77.37,4.95,75.63,87,4.14,93,CO
492,Tabou,1608350777,-7.35,4.42,77.61,84,5.41,95,CI
493,Naantali,1608350777,22.02,60.47,37.99,93,4.7,90,FI
494,Buraidah,1608350778,43.98,26.33,55.4,82,10.29,75,SA
495,Hirara,1608350778,125.28,24.8,68.0,82,21.92,75,JP
496,Bergen,1608350778,5.33,60.39,51.01,93,34.45,75,NO
497,Bundaberg,1608350719,152.35,-24.85,88.0,55,11.41,40,AU
498,Calama,1608350778,-68.93,-22.47,53.6,32,4.7,0,CL
499,Lata,1608350778,-8.33,40.16,55.99,93,4.0,93,PT
500,Muscle Shoals,1608350778,-87.67,34.74,37.0,69,4.88,1,US
501,Ulladulla,1608350778,150.47,-35.35,64.4,72,6.93,90,AU
502,Mandurah,1608350779,115.7,-32.55,91.0,24,5.82,0,AU
503,Panguna,1608350779,155.48,-6.32,77.81,88,1.79,39,PG
504,Paraíso,1608350779,-83.87,9.84,66.2,68,6.93,20,CR
505,El Alto,1608350779,-81.21,-4.27,67.57,84,13.67,81,PE
506,Plastun,1608350779,136.29,44.76,5.4,74,15.57,1,RU
507,Tavda,1608350779,65.27,58.04,2.66,93,6.38,64,RU
508,Tazovsky,1608350779,78.7,67.47,-27.49,85,14.29,100,RU
509,Tarko-Sale,1608350779,77.78,64.92,-17.0,79,14.03,98,RU
510,Dutse,1608350779,9.34,11.76,60.98,35,4.65,0,NG
511,Callaway,1608350779,-85.57,30.15,44.6,65,9.17,1,US
512,Mutsu,1608350779,141.22,41.29,23.0,67,5.82,75,JP
513,Oktyabr'skoye,1608350780,44.74,43.06,33.8,86,6.71,22,RU
514,Saint George,1608350780,-113.58,37.1,42.8,38,6.93,1,US
515,Samarai,1608350780,150.67,-10.62,84.02,70,6.98,60,PG
516,Camacha,1608350575,-16.33,33.08,62.6,82,5.82,20,PT
517,Lewiston,1608350520,-70.21,44.1,16.0,85,3.67,1,US
518,Crişan,1608350780,29.47,44.97,37.4,86,8.05,0,RO
519,Egvekinot,1608350780,-179.17,66.32,-4.56,88,18.72,44,RU
520,Gmina Śrem,1608350780,17.02,52.09,32.0,100,6.93,90,PL
521,Barcelos,1608350780,-8.62,41.54,55.4,100,8.05,75,PT
522,Yanam,1608350690,82.22,16.73,78.8,78,8.05,54,IN
523,Biltine,1608350780,20.92,14.53,60.35,33,12.06,0,TD
524,Florianópolis,1608350780,-48.5,-27.61,77.0,83,4.7,75,BR
525,Monteagudo,1608350781,-63.98,-19.82,67.05,84,1.34,74,BO
526,Poum,1608350781,164.02,-20.23,79.56,68,5.86,76,NC
527,Nantucket,1608350781,-70.1,41.28,35.6,69,16.11,90,US
528,Kargasok,1608350781,80.86,59.06,11.19,95,11.88,94,RU
529,Teknāf,1608350781,92.31,20.86,73.18,50,9.71,0,BD
530,Katangli,1608350781,143.23,51.71,1.53,85,19.84,100,RU
531,Morogoro,1608350781,37.67,-6.82,69.8,94,1.19,20,TZ
532,Fort Smith,1608350677,-94.4,35.39,48.2,57,4.7,75,US
533,Chumphon,1608350781,98.83,10.33,82.4,78,4.7,75,TH
534,Betioky,1608350782,44.38,-23.72,80.46,45,2.01,73,MG
535,Mocuba,1608350782,36.99,-16.84,75.49,86,2.42,100,MZ
536,Tommot,1608350782,126.29,58.96,-8.19,87,2.59,100,RU
537,Ngora,1608350782,33.78,1.43,63.75,90,4.36,7,UG
538,Padrauna,1608350782,83.98,26.9,58.15,36,3.51,0,IN
539,Osakarovka,1608350782,72.57,50.56,11.21,89,13.35,100,KZ
540,Formosa do Rio Preto,1608350782,-45.19,-11.05,75.0,64,1.39,95,BR
541,Lusambo,1608350782,23.45,-4.97,69.22,97,0.56,98,CD
542,Iguaí,1608350782,-40.09,-14.76,68.72,93,1.74,32,BR
543,Paka,1608350782,103.44,4.64,77.0,88,6.93,40,MY
544,Santa Maria,1608350782,-53.81,-29.68,77.0,78,9.17,0,BR
545,Sinnamary,1608350783,-52.95,5.38,78.28,86,10.58,95,GF
546,Korsholm,1608350783,21.68,63.11,32.0,98,3.36,90,FI
547,Methóni,1608350783,21.7,36.82,55.0,93,3.24,20,GR
548,Yakeshi,1608350783,120.73,49.28,-5.06,88,7.87,29,CN
549,Beyneu,1608350783,55.2,45.32,25.54,98,11.92,96,KZ
550,Acheng,1608350783,126.98,45.55,3.2,65,8.95,0,CN
551,Keningau,1608350783,116.16,5.34,86.0,74,9.17,20,MY
552,Dali,1608350783,100.18,25.7,55.31,40,4.41,4,CN
553,Tak Bai,1608350783,102.05,6.26,77.0,94,4.7,40,TH
554,Guangzhou,1608350569,113.25,23.12,53.6,50,17.9,75,CN
555,Seminole,1608350783,-81.21,28.71,48.99,97,1.01,2,US
556,Metaxades,1608350784,26.23,41.42,36.73,84,2.51,26,GR
557,Springbok,1608350784,17.89,-29.66,56.48,69,2.59,0,ZA
558,Balyqshy,1608350784,51.87,47.07,28.4,100,8.95,40,KZ
559,Auki,1608350784,160.7,-8.77,84.34,73,7.05,60,SB
560,Vila Franca do Campo,1608350784,-25.43,37.72,60.8,82,12.75,75,PT
561,Gannan,1608350784,123.5,47.91,10.47,66,9.6,0,CN
562,Richards Bay,1608350784,32.04,-28.78,72.18,87,8.68,3,ZA
563,Mayskiy,1608350784,40.1,47.69,30.2,86,4.47,75,RU
564,Santarém,1608350513,-54.71,-2.44,77.0,94,3.36,0,BR
565,Sabang,1608350785,95.32,5.89,81.5,78,25.43,88,ID
566,Baião,1608350785,-49.67,-2.79,73.62,95,2.06,62,BR
567,Rock Sound,1608350785,-76.2,24.9,72.25,77,20.85,85,BS
568,Tūkrah,1608350785,20.58,32.53,56.95,77,6.89,16,LY
569,Antalaha,1608350785,50.28,-14.9,78.39,70,5.19,50,MG
570,Cedar City,1608350571,-113.06,37.68,26.6,68,2.62,1,US
571,Verkhoyansk,1608350785,133.38,67.54,-31.63,81,1.99,97,RU
572,Santa Vitória do Palmar,1608350785,-53.37,-33.52,68.92,81,10.71,16,BR
573,Rodino,1608350785,80.25,52.5,15.93,92,18.23,100,RU
574,Kawambwa,1608350785,29.08,-9.79,61.03,100,2.71,99,ZM
575,Waingapu,1608350786,120.26,-9.66,86.67,67,10.8,100,ID
576,Gloucester,1608350786,-2.24,51.87,52.0,88,30.0,100,GB
577,Mana,1608350786,-53.78,5.66,77.68,87,8.93,100,GF
578,Lagoa,1608350786,-27.98,39.05,60.08,76,9.19,73,PT
579,Makakilo City,1608350784,-158.09,21.35,80.6,57,11.41,20,US
580,Potosí,1608350787,-65.75,-19.58,51.44,63,5.48,100,BO
581,Erzin,1608350787,36.2,36.96,50.0,72,14.0,7,TR
582,Volosovo,1608350787,29.48,59.43,33.8,99,2.24,90,RU
583,Qiongshan,1608350642,110.35,20.01,59.0,77,11.18,75,CN
584,Husavik,1608350787,-17.34,66.04,33.8,86,20.8,100,IS
585,Örnsköldsvik,1608350787,18.72,63.29,32.0,95,4.7,90,SE
586,Sibolga,1608350787,98.78,1.74,82.89,67,3.31,99,ID
587,Lüderitz,1608350787,15.16,-26.65,59.0,87,3.36,0,NA
588,Inhambane,1608350787,35.38,-23.86,73.4,94,10.76,75,MZ
589,Ürümqi,1608350788,87.6,43.8,-2.2,84,2.24,0,CN
590,Innisfail,1608350788,146.03,-17.53,86.0,54,3.0,28,AU
591,Awjilah,1608350788,21.29,29.11,52.39,83,7.76,45,LY
592,Tecolutla,1608350788,-97.02,20.48,69.84,90,2.77,97,MX
593,Kirillov,1608350788,38.38,59.86,21.2,79,4.47,90,RU
594,Celestún,1608350788,-90.4,20.87,72.54,83,13.82,0,MX
595,Abu Dhabi,1608350748,54.37,24.47,64.4,72,4.7,0,AE
596,Saint-Leu,1608350788,55.28,-21.15,82.4,65,1.12,0,RE
597,Hue,1608350789,107.6,16.47,64.4,93,13.87,75,VN
598,Uruçuí,1608350789,-44.56,-7.23,74.79,83,1.34,34,BR
599,Coquimbo,1608350789,-71.34,-29.95,57.2,76,4.7,0,CL
600,Isla Mujeres,1608350789,-86.73,21.23,77.0,73,10.29,40,MX
601,Cam Ranh,1608350789,109.16,11.92,78.8,83,25.28,75,VN
602,Ceres,1608350789,-120.96,37.59,46.4,87,3.36,1,US
603,Oriximiná,1608350789,-55.87,-1.77,75.4,92,2.71,100,BR
604,Sergeevka,1608350789,67.42,53.88,16.86,97,1.36,100,KZ
605,Hanchuan,1608350790,113.77,30.65,42.8,41,8.95,0,CN
606,Arrondissement de Langres,1608350790,5.33,47.83,39.2,100,11.97,90,FR
607,Telfs,1608350790,11.07,47.3,30.99,92,1.12,0,AT
608,Severodvinsk,1608350790,39.83,64.56,1.4,84,8.95,75,RU
609,Soyo,1608350790,12.37,-6.13,76.5,87,6.22,100,AO
610,Pacific Grove,1608350790,-121.92,36.62,51.8,81,4.7,1,US
611,Paralia Milatou,1608350790,25.57,35.32,57.2,76,6.93,40,GR
612,Vila Velha,1608350775,-40.29,-20.33,78.8,83,9.17,75,BR
613,Cheyenne,1608350631,-104.82,41.14,19.4,85,9.17,1,US
614,La Paz,1608350583,-68.15,-16.5,39.2,86,2.24,40,BO
615,Gijón,1608350790,-5.66,43.54,55.0,87,3.36,90,ES
616,The Valley,1608350790,-63.06,18.22,79.0,83,9.17,40,AI
617,Ayapel,1608350790,-75.14,8.31,74.7,94,4.21,62,CO
618,Linxia Chengguanzhen,1608350685,103.21,35.6,21.69,82,1.19,99,CN
619,Charters Towers,1608350791,146.27,-20.1,96.73,31,12.71,0,AU
620,Begoro,1608350791,-0.38,6.39,69.78,98,3.78,46,GH
621,Esim,1608350791,-2.24,4.87,77.99,86,6.08,87,GH
622,Grand Gaube,1608350791,57.66,-20.01,80.01,75,8.99,3,MU
623,Alexandria,1608350662,29.96,31.22,55.4,82,2.24,20,EG
624,Anloga,1608350791,0.9,5.79,78.8,94,5.82,20,GH
625,Martapura,1608350792,114.85,-3.42,78.8,94,3.36,40,ID
626,Weligama,1608350792,80.42,5.97,81.25,74,7.67,99,LK
627,Taywarah,1608350792,64.42,33.35,27.0,89,1.92,49,AF
628,Tchibanga,1608350792,11.03,-2.85,71.38,99,2.35,100,GA
629,Yokadouma,1608350792,15.05,3.52,66.11,90,2.46,100,CM
630,Iskateley,1608350792,53.15,67.68,14.99,94,19.8,100,RU
631,Chalchihuites,1608350792,-103.88,23.48,46.27,56,6.8,100,MX
632,Hurghada,1608350792,33.81,27.26,62.6,63,10.29,0,EG
633,Franklin,1608350792,-83.02,39.97,30.99,80,5.82,90,US
634,Remedios,1608350793,-79.55,22.49,71.6,88,6.93,75,CU
635,Farsund,1608350793,6.8,58.09,48.0,97,14.72,100,NO
636,Okahandja,1608350793,16.92,-21.98,70.0,57,2.28,0,NA
637,Tomaszów Lubelski,1608350793,23.42,50.45,30.99,97,2.89,100,PL
638,Henties Bay,1608350794,14.28,-22.12,63.0,90,5.88,93,NA
639,Preobrazheniye,1608350794,133.91,42.9,11.43,73,19.01,0,RU
640,Celendín,1608350794,-78.15,-6.87,54.32,86,2.13,84,PE
641,Sisimiut,1608350736,-53.67,66.94,16.29,95,5.39,100,GL
642,Shetpe,1608350794,52.12,44.17,27.0,98,8.3,82,KZ
643,Caála,1608350794,15.56,-12.85,57.31,79,1.32,93,AO
644,Port Lincoln,1608350794,135.87,-34.73,64.76,53,10.69,3,AU
645,Marfino,1608350794,37.38,55.7,28.4,92,8.95,90,RU
646,Kosh-Agach,1608350794,88.67,50.0,-4.95,82,0.83,0,RU
647,Qaqortoq,1608350795,-46.03,60.72,26.6,73,10.29,100,GL
648,Aswān,1608350795,32.91,24.09,55.54,73,7.94,55,EG
649,Otane,1608350795,176.63,-39.88,68.0,67,8.99,49,NZ
650,Ejura,1608350795,-1.36,7.39,73.9,85,3.91,45,GH
651,Aktas,1608350795,72.96,49.78,12.2,66,17.9,0,KZ
652,Fort Myers Beach,1608350789,-81.95,26.45,55.99,76,9.17,1,US
653,Lake Havasu City,1608350795,-114.32,34.48,57.2,26,10.29,1,US
654,Wau,1608350795,28.0,7.7,64.22,29,4.72,1,SS
655,Urusha,1608350795,122.9,54.05,-6.47,80,2.48,0,RU
656,Belaya Gora,1608350796,146.42,68.53,-19.19,88,0.76,100,RU
657,Yinchuan,1608350796,106.27,38.47,23.43,71,3.65,23,CN
658,Palana,1608350796,159.97,59.12,10.38,97,9.51,48,RU
659,Viranşehir,1608350796,39.76,37.24,42.37,61,4.52,0,TR
660,Teahupoo,1608350796,-149.27,-17.83,82.4,74,11.41,75,PF
661,Óbidos,1608350796,-55.52,-1.92,75.85,92,1.45,100,BR
662,Hambantota,1608350796,81.12,6.12,80.6,88,10.29,20,LK
663,Ejby,1608350796,12.08,55.49,39.99,100,6.93,73,DK
664,Aykhal,1608350796,111.5,66.0,-22.0,74,4.47,90,RU
665,Salinópolis,1608350796,-47.36,-0.61,79.39,83,9.86,98,BR
666,Rodrigues Alves,1608350796,-72.65,-7.74,72.19,94,1.66,98,BR
667,Diego de Almagro,1608350797,-70.05,-26.37,55.51,54,0.09,0,CL
668,Kiruna,1608350797,20.23,67.86,10.4,92,5.82,22,SE
669,Necochea,1608350690,-58.74,-38.55,69.6,63,14.52,98,AR
670,Mananjary,1608350797,48.33,-21.22,78.44,80,6.46,55,MG
671,Iskitim,1608350536,83.3,54.64,19.4,73,20.13,40,RU
672,Najrān,1608350797,44.13,17.49,51.8,53,0.45,0,SA
673,Loreto,1608350797,-101.97,22.27,54.97,41,3.85,99,MX
674,Liberal,1608350797,-100.92,37.04,33.8,86,14.99,20,US
675,Zabid,1608350797,43.32,14.2,76.59,78,7.74,46,YE
676,Avera,1608350798,-82.53,33.19,35.6,73,4.59,1,US
677,Wahiawā,1608350798,-158.02,21.5,80.6,73,6.93,40,US
678,Sampit,1608350798,112.95,-2.53,89.06,56,7.09,100,ID
679,Omboué,1608350798,9.26,-1.57,76.55,88,4.29,98,GA
680,Shimoda,1608350798,138.95,34.67,50.0,57,8.05,75,JP
681,Nyurba,1608350798,118.33,63.28,-15.23,88,2.73,97,RU
682,Gladstone,1608350798,151.25,-23.85,86.0,55,13.87,35,AU
683,Sovetskiy,1608350798,63.58,61.36,2.12,91,6.93,72,RU
684,Shubarkuduk,1608350799,56.49,49.14,13.62,97,7.52,89,KZ
685,Nosivka,1608350799,31.58,50.93,32.7,98,3.87,100,UA
686,Namwala,1608350799,26.44,-15.75,67.14,94,3.69,100,ZM
687,Hamilton,1608350799,-84.53,39.18,33.01,80,10.29,75,US
688,Hakkâri Province,1608350799,44.17,37.58,23.65,71,2.8,0,TR
689,Moroto,1608350799,34.67,2.53,65.19,52,3.51,68,UG
690,Adrar,1608350799,-10.07,20.5,54.93,40,10.58,0,MR
691,Merrill,1608350777,-89.68,45.18,28.99,86,3.36,90,US
692,Nova Floresta,1608350799,-36.2,-6.46,67.01,93,12.77,2,BR
693,Tutóia,1608350799,-42.27,-2.76,80.78,77,13.06,90,BR
694,Medicine Hat,1608350760,-110.67,50.05,35.6,69,17.22,75,CA
695,Inverell,1608350800,151.12,-29.78,84.99,37,1.01,43,AU
696,Krasnyy Kut,1608350800,46.97,50.95,13.55,96,7.18,0,RU
697,Kieta,1608350800,155.63,-6.22,84.85,73,6.85,16,PG
698,Nam Som,1608350800,102.19,17.77,75.99,56,9.17,75,TH
699,Cururupu,1608350800,-44.87,-1.83,76.73,87,3.96,77,BR
700,Mumbai,1608350724,72.85,19.01,80.6,51,5.82,17,IN
701,Yarensk,1608350800,49.09,62.17,3.07,93,3.83,0,RU
702,Antofagasta,1608350629,-70.4,-23.65,64.4,77,10.29,90,CL
703,Chardara,1608350800,67.97,41.25,40.23,68,12.57,100,KZ
704,Longonjo,1608350800,15.25,-12.91,57.54,85,0.78,77,AO
705,Jalu,1608350801,21.55,29.03,52.66,82,7.7,56,LY
706,Verāval,1608350801,70.37,20.9,72.18,47,11.16,0,IN
707,Bairiki Village,1608350801,172.98,1.33,86.0,74,11.41,20,KI
708,Bentiu,1608350801,29.83,9.23,64.51,31,4.14,9,SS
709,Puerto Baquerizo Moreno,1608350801,-89.6,-0.9,70.18,89,7.61,4,EC
